id,name,latitude,longitude,code,created_at,email,phone,address,is_active
comp1,Bangkok Manufacturing Co.,13.7563000,100.5018000,COM-001,2025-07-27 01:10:51.229412+00,info@company1.com,02-123-4567,"123 Main St, Bangkok",true
comp2,Rayong Industrial Ltd.,12.6819000,101.2538000,COM-002,2025-07-27 01:10:51.229412+00,contact@company2.com,02-987-6543,"456 Business Ave, Bangkok",true
comp3,Chonburi Electronics Inc.,13.3611000,100.9847000,,2025-07-27 01:10:51.229412+00,,,,true
CTC,บริษัท เชียงใหม่ธนากุล จำกัด,18.7701720,98.9780410,,2025-07-27 01:10:51.229412+00,,,,true
LAK,บริษัท ลักษณ์ธนากุล จำกัด,18.4065120,98.8928520,,2025-07-27 01:10:51.229412+00,,,,true
S.A.,บริษัท เอส.เอ. แดรี่ฟาร์ม จำกัด,18.7392735,99.3003237,,2025-07-27 01:10:51.229412+00,,,,true
SM,บริษัท ซัคเซสมิลค์ จำกัด,18.5284381,99.2389650,,2025-07-27 01:10:51.229412+00,,,,true
TKB,บริษัท ธนากุลพันธุ์สัตว์ จำกัด,18.4059820,98.8918760,,2025-07-27 01:10:51.229412+00,,,,true
TSF,บริษัท เดอะสตาร์ฟิช จำกัด,18.4448130,98.6685630,,2025-07-27 01:10:51.229412+00,,,,true